,City,Cloudiness,Country,Date,Humidity,Latitude,Longitude,Max Temp,Wind Speed
0,Ribeira Grande,27,PT,1584926604,73,38.52,-28.7,52.92,6.93
1,Wattegama,36,LK,1584926605,100,6.8,81.48,73.4,4.7
2,Salinas,90,US,1584926505,67,36.68,-121.66,62.6,10.29
3,Dikson,100,RU,1584926605,99,73.51,80.55,-5.4,11.3
4,Airai,74,TL,1584926606,63,-8.93,125.41,73.62,2.1
5,Ilulissat,0,GL,1584926606,54,69.22,-51.1,-0.4,5.82
6,Vila Franca do Campo,75,PT,1584926365,71,37.72,-25.43,55.4,6.93
7,Vestmannaeyjar,99,IS,1584926607,69,63.44,-20.27,41.76,39.3
8,Punta Arenas,100,CL,1584926607,82,-53.15,-70.92,55.4,10.29
9,Buchanan,76,LR,1584926607,89,5.88,-10.05,78.12,2.71
10,Avera,90,US,1584926607,100,33.19,-82.53,57.2,4.7
11,Saint Paul Harbor,1,US,1584926608,38,57.79,-152.41,42.8,24.16
12,Vaini,75,TO,1584926608,78,-21.2,-175.2,82.4,10.29
13,Blind River,40,CA,1584926608,63,46.18,-82.96,30.2,10.29
14,Amazar,2,RU,1584926608,86,53.86,120.88,18.36,2.13
15,Pangkalanbuun,100,ID,1584926609,96,-2.68,111.62,75.6,2.51
16,Souillac,75,MU,1584926609,94,-20.52,57.52,78.8,9.17
17,Tasiilaq,100,GL,1584926609,92,65.61,-37.64,23.0,8.01
18,Ponta do Sol,75,PT,1584926600,77,32.67,-17.1,59.0,23.04
19,Port Blair,0,IN,1584926610,67,11.67,92.75,81.18,8.32
20,Rikitea,88,PF,1584926610,71,-23.12,-134.97,78.66,1.7
21,Palmer,40,US,1584926610,46,42.16,-72.33,34.0,4.7
22,Saint-Philippe,5,RE,1584926610,73,-21.36,55.77,77.0,8.05
23,Sola,75,VU,1584926611,70,-13.88,167.55,87.8,11.41
24,Bredasdorp,39,ZA,1584926611,87,-34.53,20.04,60.8,3.36
25,Mataura,99,NZ,1584926611,89,-46.19,168.86,46.0,21.0
26,Bellūru,85,IN,1584926612,67,12.99,76.74,73.26,5.08
27,Bluff,100,NZ,1584926612,89,-46.6,168.33,46.0,21.0
28,Kamaishi,75,JP,1584926612,52,39.27,141.88,42.8,10.29
29,North Bend,90,US,1584926612,87,43.41,-124.22,52.0,5.82
30,Sisimiut,44,GL,1584926612,97,66.94,-53.67,3.6,2.1
31,Oranjemund,21,NA,1584926613,94,-28.55,16.43,59.76,9.17
32,Esperance,41,AU,1584926613,88,-33.87,121.9,62.6,10.29
33,Mar del Plata,28,AR,1584926502,82,-38.0,-57.56,73.99,4.7
34,Gamba,99,GA,1584926613,86,-2.65,10.0,79.2,3.94
35,Cape Town,17,ZA,1584926381,82,-33.93,18.42,64.99,8.05
36,Klaksvík,100,FO,1584926614,87,62.23,-6.59,44.6,20.8
37,Vetlanda,7,SE,1584926614,74,57.43,15.08,28.4,4.7
38,Ust-Nera,100,RU,1584926614,99,64.57,143.2,-6.97,5.28
39,East London,66,ZA,1584926614,89,-33.02,27.91,75.24,4.83
40,Henties Bay,0,NA,1584926615,92,-22.12,14.28,62.01,2.8
41,Sindor,31,RU,1584926615,96,62.86,51.89,12.24,5.35
42,Kamskoye Ustye,100,RU,1584926615,62,55.2,49.27,19.4,11.18
43,Nanortalik,48,GL,1584926616,70,60.14,-45.24,24.35,41.27
44,Kavieng,100,PG,1584926616,79,-2.57,150.8,82.44,13.15
45,Yeppoon,20,AU,1584926616,62,-23.13,150.73,84.2,10.29
46,Lompoc,90,US,1584926609,100,34.64,-120.46,57.99,12.75
47,Ushuaia,93,AR,1584926489,61,-54.8,-68.3,50.0,6.15
48,Turukhansk,12,RU,1584926617,94,65.82,87.98,-18.72,11.39
49,Albany,1,US,1584926617,45,42.6,-73.97,33.8,5.82
50,Vondrozo,59,MG,1584926617,96,-22.82,47.28,70.38,2.51
51,Puerto Ayora,20,EC,1584926618,78,-0.74,-90.35,80.6,8.05
52,Hobart,40,AU,1584926367,50,-42.88,147.33,61.0,6.93
53,Chimoré,40,BO,1584926618,75,-16.98,-65.13,77.58,1.21
54,Nalgonda,0,IN,1584926618,90,17.05,79.27,72.41,5.79
55,New Norfolk,40,AU,1584926618,50,-42.78,147.06,61.0,6.93
56,Ahwa,8,IN,1584926619,51,20.75,73.68,70.25,4.97
57,Fort Nelson,75,CA,1584926619,35,58.81,-122.7,41.0,2.24
58,Grindavik,75,IS,1584926619,93,63.84,-22.43,35.6,27.51
59,Busselton,4,AU,1584926619,74,-33.65,115.33,67.01,11.86
60,George Town,20,MY,1584926500,78,5.41,100.34,82.4,2.24
61,Kapaa,75,US,1584926620,74,22.08,-159.32,80.6,13.87
62,Minggang,85,CN,1584926620,63,32.46,114.05,55.85,2.33
63,Aitape,100,PG,1584926584,76,-3.14,142.35,81.9,5.26
64,Varna,90,BG,1584926621,86,43.22,27.92,39.2,6.93
65,Najrān,0,SA,1584926621,48,17.49,44.13,66.2,1.45
66,Kaka,100,TM,1584926621,90,37.35,59.61,51.3,3.51
67,Pufeşti,84,RO,1584926621,100,46.0,27.2,30.2,11.41
68,Bengkulu,100,ID,1584926622,93,-3.8,102.27,72.59,3.49
69,Fujin,11,CN,1584926622,56,47.26,132.03,29.52,14.88
70,Padang,100,ID,1584926622,94,-0.95,100.35,69.71,3.0
71,Beloha,53,MG,1584926622,82,-25.17,45.05,72.23,8.57
72,Port-Cartier,5,CA,1584926623,47,50.03,-66.87,17.01,8.05
73,Laas,0,IT,1584926623,85,46.62,10.7,30.99,5.82
74,Castro,10,BR,1584926624,81,-24.79,-50.01,62.1,8.08
75,Kruisfontein,91,ZA,1584926624,89,-34.0,24.73,64.08,5.91
76,Abnūb,17,EG,1584926624,44,27.27,31.15,57.2,9.17
77,Alzamay,67,RU,1584926625,64,55.56,98.66,31.5,18.23
78,Keti Bandar,80,PK,1584926625,87,24.14,67.45,71.64,3.15
79,Tyup,54,KG,1584926625,40,42.73,78.36,32.09,4.09
80,Hasaki,75,JP,1584926625,74,35.73,140.83,50.0,16.11
81,Avarua,89,CK,1584926626,70,-21.21,-159.78,84.2,11.41
82,Uyo,100,NG,1584926626,83,5.03,7.93,80.1,1.05
83,Carnarvon,0,AU,1584926621,43,-24.87,113.63,87.8,13.87
84,Lebu,27,CL,1584926627,79,-37.62,-73.65,55.44,7.34
85,Faanui,10,PF,1584926627,66,-16.48,-151.75,83.52,4.5
86,Lüderitz,0,NA,1584926627,72,-26.65,15.16,64.4,16.11
87,Kieta,100,PG,1584926628,72,-6.22,155.63,82.8,3.22
88,Caceres,84,ES,1584926628,94,39.52,-6.37,48.0,1.9
89,Jamestown,90,US,1584926629,32,42.1,-79.24,42.8,9.17
90,Hermanus,51,ZA,1584926629,94,-34.42,19.23,57.0,12.59
91,Lakatoro,65,VU,1584926629,89,-16.1,167.42,86.0,8.05
92,Barrow,1,US,1584926493,70,71.29,-156.79,-0.4,9.17
93,Mineiros,53,BR,1584926629,87,-17.57,-52.55,69.71,1.25
94,Katsuura,75,JP,1584926630,81,35.13,140.3,52.0,17.22
95,Swan River,29,CA,1584926630,84,52.11,-101.27,26.46,12.15
96,Flinders,40,AU,1584926630,49,-34.58,150.86,71.01,10.29
97,Anadyr,97,RU,1584926630,89,64.75,177.48,32.0,8.95
98,Port Alfred,96,ZA,1584926569,97,-33.59,26.89,70.0,11.01
99,Norman Wells,90,CA,1584926631,78,65.28,-126.83,17.6,27.51
100,Beira,20,MZ,1584926631,78,-19.84,34.84,80.6,5.82
101,Puerto Escondido,5,MX,1584926631,74,15.85,-97.07,82.4,4.32
102,Patnāgarh,0,IN,1584926631,57,20.72,83.15,73.8,2.19
103,Linxia Chengguanzhen,16,CN,1584926402,40,35.6,103.21,41.58,5.14
104,Sebrovo,100,RU,1584926632,93,50.1,43.3,28.99,12.55
105,Lázaro Cárdenas,0,MX,1584926480,66,17.96,-102.2,80.64,6.53
106,Arraial do Cabo,23,BR,1584926632,76,-22.97,-42.03,75.96,17.05
107,Hamilton,90,US,1584926430,75,39.18,-84.53,44.01,6.93
108,Tuktoyaktuk,20,CA,1584926633,77,69.45,-133.04,-2.2,17.22
109,Boshnyakovo,100,RU,1584926633,76,49.63,142.17,27.18,13.65
110,Thompson,75,CA,1584926633,87,55.74,-97.86,32.0,6.93
111,Cherskiy,100,RU,1584926680,91,68.75,161.3,12.11,14.58
112,Bereda,90,ES,1584926680,87,43.27,-7.54,55.0,4.7
113,Olinda,20,BR,1584926680,74,-8.01,-34.86,84.2,3.36
114,Carutapera,51,BR,1584926681,74,-1.2,-46.02,81.9,8.84
115,Guiren,91,CN,1584926681,82,33.67,118.19,55.99,6.98
116,Mago,96,RU,1584926681,79,53.25,140.18,20.34,3.24
117,Dondo,20,MZ,1584926683,78,-19.61,34.74,80.6,5.82
118,Butaritari,17,KI,1584926683,77,3.07,172.79,84.06,16.44
119,Cibitoke Province,0,BI,1584926683,94,-2.88,29.25,56.57,1.74
120,Smithers,90,CA,1584926683,85,54.78,-127.17,35.6,3.36
121,Saskylakh,84,RU,1584926684,93,71.92,114.08,-19.98,9.1
122,Massakory,29,TD,1584926684,12,13.0,15.73,85.5,8.57
123,Buritizeiro,91,BR,1584926684,94,-17.35,-44.96,71.69,0.31
124,Kutum,100,SD,1584926684,19,14.2,24.67,63.9,5.5
125,Ostrovnoy,100,RU,1584926684,82,68.05,39.51,23.81,31.63
126,Port Hardy,90,CA,1584926685,86,50.7,-127.42,41.0,11.41
127,Mount Gambier,90,AU,1584926686,62,-37.83,140.77,59.0,10.29
128,Solnechnyy,97,RU,1584926686,67,50.72,136.63,26.64,0.98
129,Scarborough,0,GB,1584926686,100,54.28,-0.4,39.0,2.24
130,Makkah al Mukarramah,0,SA,1584926687,31,21.43,39.83,62.51,2.91
131,Yulara,68,AU,1584926687,21,-25.24,130.99,84.2,24.16
132,Nikolskoye,0,RU,1584926688,62,59.7,30.79,23.0,1.57
133,Rawson,13,AR,1584926427,61,-43.3,-65.1,66.11,17.67
134,Moose Factory,1,CA,1584926689,46,51.26,-80.61,28.4,12.75
135,Tuatapere,100,NZ,1584926689,89,-46.13,167.68,46.0,21.0
136,Kaitangata,99,NZ,1584926689,84,-46.28,169.85,52.56,13.2
137,Kholm-Zhirkovskiy,0,RU,1584926690,57,55.52,33.47,24.53,9.31
138,Nara,20,JP,1584926480,50,34.69,135.8,53.6,4.7
139,Kloulklubed,90,PW,1584926690,70,7.04,134.26,86.0,14.99
140,Cairns,90,AU,1584926503,78,-16.92,145.77,80.6,13.87
141,Rocha,55,UY,1584926691,72,-34.48,-54.33,63.59,5.5
142,Katiola,20,CI,1584926692,78,8.13,-5.1,78.8,11.41
143,Hervey Bay,75,AU,1584926692,65,-25.3,152.85,84.99,10.29
144,Sumenep,44,ID,1584926692,77,-7.02,113.87,81.36,1.48
145,Puka,0,EE,1584926692,79,58.06,26.24,19.99,1.59
146,Porto Empedocle,89,IT,1584926693,86,37.29,13.53,52.0,3.31
147,Srednekolymsk,100,RU,1584926693,82,67.45,153.68,11.03,12.48
148,Mahibadhoo,1,MV,1584926693,65,3.78,72.97,83.16,6.38
149,Bambous Virieux,75,MU,1584926694,94,-20.34,57.76,78.8,9.17
150,Enshi,100,CN,1584926410,90,30.3,109.48,54.77,0.81
151,Shingū,40,JP,1584926695,51,33.73,135.98,59.0,17.22
152,Raudeberg,100,NO,1584926695,86,61.99,5.14,41.0,31.09
153,Mahébourg,75,MU,1584926695,94,-20.41,57.7,78.8,9.17
154,Saint-Augustin,18,CA,1584926696,78,51.23,-58.65,12.29,12.03
155,Atuona,77,PF,1584926697,78,-9.8,-139.03,82.26,11.59
156,Xuchang,5,CN,1584926697,71,34.02,113.82,55.4,4.94
157,Bethel,1,US,1584926697,55,41.37,-73.41,37.4,6.93
158,Amapá,2,BR,1584926697,97,1.0,-52.0,73.26,3.29
159,Atar,0,MR,1584926698,27,20.52,-13.05,60.66,4.14
160,Vyartsilya,0,RU,1584926698,60,62.18,30.69,24.66,7.31
161,Acapulco de Juárez,40,MX,1584926557,74,16.86,-99.89,82.4,6.93
162,Leh,10,IN,1584926699,54,34.17,77.58,5.81,4.41
163,Khvorostyanka,100,RU,1584926699,95,52.61,48.96,26.69,22.39
164,Tulum,40,MX,1584926535,74,20.22,-87.47,79.0,3.36
165,Umm Hājar,88,TD,1584926700,9,13.3,19.7,82.44,5.97
166,Fairbanks,75,US,1584926700,79,64.84,-147.72,19.99,10.29
167,Kungur,0,RU,1584926700,88,57.44,56.96,10.8,3.0
168,Nome,90,US,1584926700,99,64.5,-165.41,28.99,3.36
169,Russell,90,US,1584926701,88,32.35,-85.2,64.4,6.08
170,Morón,14,AR,1584926701,73,-34.65,-58.62,75.99,6.93
171,Adré,98,TD,1584926701,15,13.47,22.2,71.69,7.0
172,Belaya Gora,0,RU,1584926701,75,68.53,146.42,0.54,1.81
173,Cayenne,69,GF,1584926702,94,4.93,-52.33,75.2,5.41
174,Barranca,45,PE,1584926702,85,-10.75,-77.77,74.34,12.35
175,Cam Ranh,20,VN,1584926702,83,11.92,109.16,77.0,3.36
176,Kamenka,100,RU,1584926702,94,51.32,42.77,25.0,11.01
177,Goreloye,83,RU,1584926703,43,52.94,41.5,25.74,15.32
178,Longyearbyen,90,SJ,1584926703,85,78.22,15.64,19.4,29.97
179,Nioro,0,GM,1584926703,31,13.35,-15.75,76.86,12.41
180,Port Elizabeth,90,ZA,1584926704,100,-33.92,25.57,64.4,18.34
181,Qui Nhon,19,VN,1584926511,88,13.77,109.23,71.82,2.89
182,Ploemeur,90,FR,1584926704,87,47.73,-3.43,48.0,4.7
183,Norrtälje,47,SE,1584926705,79,59.76,18.7,33.01,9.17
184,Nemuro,75,JP,1584926705,60,43.32,145.57,39.2,4.7
185,Asău,100,RO,1584926705,100,46.43,26.4,30.2,11.41
186,Dingle,98,PH,1584926706,78,11.0,122.67,79.02,9.69
187,Half Moon Bay,90,US,1584926706,93,37.46,-122.43,63.0,4.29
188,Tazovsky,11,RU,1584926706,90,67.47,78.7,-14.4,8.37
189,Narsaq,22,GL,1584926707,45,60.92,-46.05,23.0,14.99
190,Nuuk,53,GL,1584926548,67,64.18,-51.72,17.6,6.93
191,Wajid,97,SO,1584926707,62,3.81,43.25,77.22,10.89
192,Vila,0,PT,1584926708,87,42.03,-8.16,55.99,8.05
193,Richards Bay,100,ZA,1584926708,82,-28.78,32.04,75.42,17.74
194,Orshanka,0,RU,1584926708,68,56.92,47.89,20.52,8.77
195,Yellowknife,75,CA,1584926563,63,62.46,-114.35,30.2,6.93
196,Shubarshi,99,KZ,1584926708,66,48.59,57.19,35.46,8.5
197,Khatanga,46,RU,1584926709,97,71.97,102.5,-29.65,7.38
198,Pevek,100,RU,1584926709,92,69.7,170.31,11.75,5.57
199,Hobyo,89,SO,1584926710,79,5.35,48.53,81.72,10.69
200,Ileza,0,RU,1584926710,89,61.05,43.9,15.66,3.49
201,Falam,0,MM,1584926463,85,22.92,93.68,50.27,0.69
202,Codrington,78,AU,1584926710,65,-38.27,141.97,57.78,10.8
203,Juan Aldama,48,MX,1584926711,12,24.29,-103.39,83.34,11.05
204,Hambantota,0,LK,1584926711,100,6.12,81.12,73.4,4.7
205,Aksu,9,CN,1584926711,47,41.12,80.26,48.24,6.82
206,Gijang,0,KR,1584926713,32,35.24,129.21,55.4,4.7
207,Taikang,0,CN,1584926713,47,46.83,124.42,34.07,10.2
208,Upernavik,0,GL,1584926714,97,72.79,-56.15,-12.42,4.45
209,Liverpool,0,GB,1584926451,64,53.41,-2.98,39.2,5.82
210,Saint Anthony,90,US,1584926714,74,45.02,-93.22,41.0,10.29
211,Mezen',87,RU,1584926715,86,65.85,44.24,22.68,13.22
212,Bilma,0,NE,1584926715,14,18.69,12.92,78.66,1.72
213,Fichē,94,ET,1584926715,68,9.8,38.73,65.7,4.05
214,Isiolo,82,KE,1584926716,62,0.35,37.58,72.18,2.86
215,Severo-Kuril'sk,81,RU,1584926716,94,50.68,156.12,28.98,8.5
216,Beringovskiy,100,RU,1584926716,90,63.05,179.32,35.1,16.44
217,Santa Cruz,5,MA,1584926716,87,30.42,-9.6,55.4,6.93
218,Kavaratti,0,IN,1584926717,68,10.57,72.64,83.34,9.48
219,Kapit,99,MY,1584926717,98,2.02,112.93,74.34,1.83
220,Rabo de Peixe,75,PT,1584926717,71,37.8,-25.58,55.4,6.93
221,Gushikawa,75,JP,1584926717,78,26.35,127.87,75.2,8.05
222,Vyshkov,36,RU,1584926718,79,52.48,31.69,19.4,8.95
223,Cianorte,0,BR,1584926718,57,-23.66,-52.6,77.0,8.05
224,Qaanaaq,81,GL,1584926719,72,77.48,-69.36,-10.44,3.0
225,Ekibastuz,99,KZ,1584926719,92,51.67,75.37,25.2,2.75
226,Clyde River,75,CA,1584926719,69,70.47,-68.59,-11.2,2.24
227,Port Lincoln,99,AU,1584926720,69,-34.73,135.87,61.38,16.06
228,Prieska,48,ZA,1584926720,55,-29.66,22.75,69.3,13.47
229,Kununurra,95,AU,1584926720,49,-15.77,128.73,89.6,6.93
230,Lagoa,47,PT,1584926720,65,39.05,-27.98,56.21,5.95
231,Kungurtug,81,RU,1584926721,72,50.6,97.52,20.34,1.9
232,Gaoual,41,GN,1584926721,53,11.75,-13.2,74.57,5.26
233,Katangli,100,RU,1584926721,82,51.71,143.23,24.12,6.24
234,Los Llanos de Aridane,75,ES,1584926722,63,28.66,-17.92,60.8,6.93
235,Leningradskiy,100,RU,1584926722,80,69.38,178.42,10.44,11.88
236,Cidreira,10,BR,1584926724,76,-30.18,-50.21,74.52,21.05
237,Taloda,8,IN,1584926725,54,21.57,74.22,70.02,3.69
238,Hof,1,DE,1584926725,62,50.32,11.92,28.0,5.82
239,Vostok,0,RU,1584926725,81,46.49,135.88,23.04,4.59
240,Harper,70,LR,1584926725,94,4.38,-7.72,78.12,4.32
241,Chui,0,UY,1584926726,77,-33.7,-53.46,66.96,7.45
242,Oktyabr'skoye,33,RU,1584926726,45,43.06,44.74,39.6,3.27
243,Egvekinot,100,RU,1584926726,95,66.32,-179.17,17.69,7.94
244,Epe,69,NG,1584926727,88,6.58,3.98,80.87,6.35
245,Hithadhoo,0,MV,1584926727,65,-0.6,73.08,84.24,5.61
246,Vallenar,0,CL,1584926727,88,-28.57,-70.76,56.52,2.39
247,Grand Gaube,75,MU,1584926728,94,-20.01,57.66,78.8,9.17
248,Kidal,37,ML,1584926729,8,18.44,1.41,77.09,8.1
249,Hilo,90,US,1584926729,73,19.73,-155.09,75.2,5.82
250,Kabala,71,SL,1584926729,58,9.58,-11.55,74.7,4.72
251,Gornopravdinsk,50,RU,1584926729,97,60.05,69.9,6.84,4.0
252,Kamina,91,CD,1584926730,96,-8.74,24.99,62.46,1.97
253,Rome,1,US,1584926465,31,43.21,-75.46,35.01,11.41
254,Itarema,54,BR,1584926731,90,-2.92,-39.92,75.96,3.13
255,Magdagachi,0,RU,1584926731,80,53.45,125.8,18.36,4.92
256,Abonnema,40,NG,1584926731,88,4.71,6.79,80.6,3.51
257,Lazarev,100,RU,1584926731,71,52.23,141.51,21.24,2.84
258,Tupik,11,RU,1584926732,88,54.43,119.93,15.84,1.43
259,Touros,20,BR,1584926732,83,-5.2,-35.46,78.8,9.84
260,Poso,100,ID,1584926732,84,-1.4,120.75,71.51,1.66
261,Sitka,20,US,1584926546,42,57.05,-135.33,48.2,11.41
262,Constitución,0,CL,1584926563,89,-35.33,-72.42,53.82,7.76
263,Kānt,23,IN,1584926733,51,27.8,79.8,64.67,3.15
264,Haines Junction,60,CA,1584926733,69,60.75,-137.51,19.62,8.84
265,Saint-Pierre,0,RE,1584926733,73,-21.34,55.48,77.0,8.05
266,Merauke,100,ID,1584926734,80,-8.47,140.33,83.75,5.77
267,Langenhagen,0,DE,1584926734,58,52.45,9.75,33.8,6.93
268,Port Hedland,100,AU,1584926734,66,-20.32,118.57,89.6,10.29
269,Djibo,18,BF,1584926735,17,14.1,-1.63,83.88,9.69
270,Morondava,0,MG,1584926735,94,-20.28,44.28,72.9,3.56
271,Portree,100,GB,1584926735,72,57.41,-6.19,44.01,18.01
272,Biltine,65,TD,1584926735,14,14.53,20.92,76.68,5.59
273,Dudinka,3,RU,1584926735,75,69.41,86.18,-20.2,6.71
274,Ambon City,40,ID,1584926454,78,-3.7,128.18,82.4,3.36
275,Arlit,56,NE,1584926736,10,18.74,7.39,82.31,6.35
276,Ponta Delgada,75,PT,1584926736,71,37.73,-25.67,55.4,6.93
277,Vancouver,1,CA,1584926627,76,49.25,-123.12,51.01,9.17
278,Effingham County,90,US,1584926736,82,32.37,-81.33,62.6,10.29
279,Suleja,62,NG,1584926737,83,9.18,7.18,80.6,4.7
280,Faya,20,SA,1584926737,82,18.39,42.45,57.2,4.7
281,Skellefteå,82,SE,1584926737,79,64.75,20.95,33.01,6.93
282,Presidencia Roque Sáenz Peña,0,AR,1584926738,47,-26.79,-60.44,70.92,4.34
283,Hofn,100,IS,1584926738,70,64.25,-15.21,43.2,33.13
284,Portland,75,US,1584926591,33,45.52,-122.68,63.0,11.41
285,Sabang,38,ID,1584926739,67,5.89,95.32,83.52,9.71
286,Lorengau,100,PG,1584926740,71,-2.02,147.27,84.6,6.26
287,Pirovskoye,100,RU,1584926740,85,57.63,92.27,15.35,18.5
288,Yongchang,89,CN,1584926741,54,30.04,119.73,57.99,5.26
289,Marsh Harbour,0,BS,1584926741,76,26.54,-77.06,73.67,10.27
290,São Filipe,73,CV,1584926741,79,14.9,-24.5,69.12,18.54
291,Binga,96,ZW,1584926741,75,-17.62,27.34,74.03,1.66
292,Coihueco,0,CL,1584926742,62,-36.62,-71.83,59.0,5.82
293,Bud,90,US,1584926743,86,39.45,-86.18,39.99,9.17
294,Khovd,100,MN,1584926684,45,48.01,91.64,30.96,10.04
295,Barletta,100,IT,1584926744,71,41.31,16.29,55.4,9.17
296,Miraflores,40,MX,1584926744,20,19.22,-98.81,86.0,14.99
297,Wilmington,90,US,1584926550,66,34.23,-77.94,54.0,10.29
298,Ulladulla,40,AU,1584926745,49,-35.35,150.47,68.0,10.29
299,Mayo,75,US,1584926745,75,38.89,-76.51,46.4,12.75
300,Porto-Novo,20,BJ,1584926745,94,6.5,2.6,80.6,6.93
301,Bijie,75,CN,1584926745,84,27.31,105.29,55.44,1.57
302,Ugoofaaru,10,MV,1584926745,68,5.67,73.0,82.85,5.91
303,Lima,27,PE,1584926618,73,-12.04,-77.03,75.2,12.75
304,Teya,100,RU,1584926746,85,60.38,92.63,5.94,13.0
305,Ürümqi,100,CN,1584926746,61,43.8,87.6,48.2,2.24
306,San Cristobal,40,VE,1584926705,54,7.77,-72.22,82.4,3.36
307,Mildura,31,AU,1584926747,44,-34.2,142.15,64.99,12.75
308,Atambua,62,ID,1584926747,76,-9.11,124.89,78.89,0.67
309,Almaşu,90,RO,1584926747,92,46.95,23.13,28.4,6.93
310,La Ronge,75,CA,1584926747,50,55.1,-105.28,33.8,11.41
311,Puri,20,IN,1584926747,94,19.8,85.85,69.8,0.25
312,Hong Kong,20,HK,1584926666,83,22.29,114.16,78.01,3.36
313,Bozoum,4,CF,1584926748,71,6.32,16.38,71.1,4.54
314,San Buenaventura,2,MX,1584926748,51,27.08,-101.53,73.8,11.25
315,Inhambane,69,MZ,1584926749,83,-23.86,35.38,77.94,9.73
316,Xichang,32,CN,1584926749,89,27.9,102.26,40.14,2.48
317,San Patricio,20,MX,1584926749,78,19.22,-104.7,82.4,9.17
318,Boa Vista,75,BR,1584926750,43,2.82,-60.67,89.6,11.41
319,Mogadishu,2,SO,1584926750,77,2.04,45.34,82.62,11.9
320,Flin Flon,71,CA,1584926750,82,54.77,-101.86,30.06,7.02
321,Manggar,89,ID,1584926751,77,-2.88,108.27,81.95,6.11
322,Vestmanna,100,FO,1584926751,87,62.16,-7.17,44.6,20.8
323,Seoul,1,KR,1584926752,53,37.57,126.98,53.6,3.36
324,Maturin,18,VE,1584926752,57,9.75,-63.18,79.43,9.8
325,Vilhena,25,BR,1584926752,86,-12.74,-60.15,72.0,2.1
326,Tateyama,75,JP,1584926752,66,34.98,139.87,55.4,17.22
327,Sarkand,98,KZ,1584926752,95,45.41,79.92,37.08,3.18
328,Dunmore Town,0,BS,1584926753,78,25.5,-76.65,73.85,10.65
329,Pedasí,4,PA,1584926584,75,7.53,-80.03,79.38,13.15
330,Halifax,5,CA,1584926498,44,44.65,-63.57,23.0,6.93
331,Nuristan,95,AF,1584926753,73,35.3,70.83,11.16,3.76
332,Chicama,78,PE,1584926754,61,-7.84,-79.15,74.52,6.08
333,Cabo San Lucas,5,MX,1584926754,60,22.89,-109.91,73.99,9.17
334,Coxim,96,BR,1584926472,92,-18.51,-54.76,75.42,4.7
335,Geraldton,0,AU,1584926754,45,-28.77,114.6,82.99,23.04
336,Isangel,75,VU,1584926754,74,-19.55,169.27,84.2,11.41
337,Talnakh,12,RU,1584926756,75,69.49,88.4,-20.2,6.71
338,Maniitsoq,6,GL,1584926756,71,65.42,-52.9,14.04,11.41
339,San Ignacio Río Muerto,20,MX,1584926757,38,27.42,-110.23,75.2,6.93
340,Jinchang,80,CN,1584926757,53,38.5,102.17,38.88,10.89
341,Auki,82,SB,1584926757,70,-8.77,160.7,84.47,1.36
342,Taoudenni,5,ML,1584926757,15,22.68,-3.98,69.12,10.89
343,Tiksi,9,RU,1584926758,80,71.69,128.87,-6.12,10.27
344,Novo Selo,100,MK,1584926758,79,41.41,22.88,53.01,5.99
345,Pizhanka,0,RU,1584926758,87,57.46,48.54,13.32,5.37
346,Saint-Joseph,0,RE,1584926759,73,-21.37,55.62,77.0,8.05
347,Andenes,100,NO,1584926759,67,69.31,16.12,37.4,23.04
348,Nicolás Bravo,0,MX,1584926465,59,18.45,-88.92,80.28,6.13
349,Talcahuano,40,CL,1584926760,82,-36.72,-73.12,57.2,5.82
350,Camacha,40,PT,1584926760,77,33.08,-16.33,59.0,20.8
351,Ţahţā,17,EG,1584926760,33,26.77,31.5,57.2,4.7
352,Port Augusta,99,AU,1584926761,42,-32.5,137.77,68.0,12.75
353,Maningrida,60,AU,1584926761,71,-12.07,134.27,81.05,8.84
354,Panlaitan,70,PH,1584926586,72,12.12,119.85,82.08,4.99
355,Coruripe,33,BR,1584926762,80,-10.13,-36.18,82.62,11.1
356,Kuytun,100,RU,1584926762,96,54.34,101.5,31.14,1.61
357,Iqaluit,90,CA,1584926563,72,63.75,-68.51,14.0,14.99
358,Gazli,96,UZ,1584926763,40,40.13,63.45,50.94,22.95
359,Salalah,75,OM,1584926763,100,17.02,54.09,78.8,6.93
360,Coquimbo,0,CL,1584926664,87,-29.95,-71.34,60.8,4.7
361,Laguna,1,US,1584926763,35,38.42,-121.42,72.0,1.99
362,Waddān,0,LY,1584926764,30,29.16,16.14,66.96,6.6
363,Lerwick,100,GB,1584926765,87,60.15,-1.15,42.8,27.51
364,Beyneu,38,KZ,1584926766,68,45.32,55.2,40.14,11.83
365,Waipawa,100,NZ,1584926766,63,-41.41,175.52,66.2,20.8
366,Burhānpur,0,IN,1584926766,40,21.3,76.23,72.05,6.69
367,Nhulunbuy,75,AU,1584926717,70,-12.23,136.77,84.2,11.41
368,Karasjok,100,NO,1584926768,69,69.47,25.51,33.8,38.03
369,Gladstone,40,AU,1584926768,54,-23.85,151.25,82.4,10.29
370,Dunedin,94,NZ,1584926608,89,-45.87,170.5,55.0,11.99
371,Tubinskiy,90,RU,1584926768,100,52.89,58.22,21.2,11.18
372,Kandrian,100,PG,1584926769,71,-6.22,149.55,85.14,2.13
373,Iralaya,20,HN,1584926769,78,15.0,-83.23,80.6,5.82
374,Piaçabuçu,66,BR,1584926769,82,-10.41,-36.43,81.72,8.16
375,Zyryanka,100,RU,1584926770,80,65.75,150.85,14.04,13.62
376,Samarai,94,PG,1584926770,62,-10.62,150.67,86.94,3.56
377,Mocuba,61,MZ,1584926771,94,-16.84,36.99,67.5,2.71
378,Santa Rosalía,100,MX,1584926771,32,27.32,-112.28,70.07,2.64
379,Araouane,29,ML,1584926771,13,18.9,-3.53,72.72,7.05
380,Alofi,72,NU,1584926772,74,-19.06,-169.92,84.2,6.93
381,Chokurdakh,74,RU,1584926772,73,70.63,147.92,0.36,2.13
382,Balkhash,62,KZ,1584926772,65,46.84,74.98,28.98,12.82
383,Tsuruoka,75,JP,1584926772,49,38.72,139.82,46.4,14.99
384,Bridlington,0,GB,1584926773,86,54.08,-0.19,39.0,9.17
385,Tezu,100,IN,1584926773,53,27.92,96.17,63.54,2.68
386,Omboué,91,GA,1584926773,94,-1.57,9.26,76.19,2.75
387,Nisko,20,PL,1584926773,73,50.52,22.14,27.0,11.41
388,Darhan,0,MN,1584926774,50,49.49,105.92,33.53,6.02
389,Kichera,100,RU,1584926774,87,55.94,110.1,25.07,0.2
390,Borogontsy,0,RU,1584926774,79,62.67,131.17,-0.13,2.71
391,Ayan,13,RU,1584926774,74,56.45,138.17,19.49,9.15
392,Vardø,76,NO,1584926774,73,70.37,31.11,32.94,28.19
393,Lavrentiya,92,RU,1584926775,93,65.58,-171.0,32.4,8.41
394,Vanderhoof,100,CA,1584926775,96,54.02,-124.02,35.28,6.15
395,Maroua,93,CM,1584926775,13,10.59,14.32,86.27,3.85
396,Panjakent,20,TJ,1584926775,71,39.5,67.61,51.8,11.41
397,Guerrero Negro,79,MX,1584926776,52,27.98,-114.06,66.47,12.97
398,Alice Springs,17,AU,1584926727,20,-23.7,133.88,84.2,17.22
399,Del Rio,1,US,1584926776,64,29.36,-100.9,69.8,3.36
400,Naze,75,JP,1584926776,68,28.37,129.48,71.6,11.41
401,Tanout,5,NE,1584926777,14,14.97,8.89,80.28,4.43
402,Le Port,20,RE,1584926777,73,-20.94,55.29,77.0,4.7
403,Corumbá,69,BR,1584926777,91,-19.01,-57.65,76.32,1.28
404,Fare,14,PF,1584926584,65,-16.7,-151.02,83.88,5.77
405,Igarka,2,RU,1584926778,93,67.47,86.58,-18.72,15.1
406,Kayerkan,66,RU,1584926779,75,69.35,87.76,-20.2,6.71
407,Djibouti,40,DJ,1584926779,78,11.5,42.5,82.4,4.76
408,Ziro,97,IN,1584926779,77,27.63,93.83,52.2,3.15
409,Provideniya,90,RU,1584926780,98,64.38,-173.3,33.8,20.13
410,Huarmey,48,PE,1584926780,59,-10.07,-78.15,73.08,2.46
411,Kananga,83,CD,1584926781,98,-5.9,22.42,68.04,2.04
412,Antsohihy,26,MG,1584926781,73,-14.88,47.99,73.13,7.67
413,Deming,1,US,1584926781,25,32.27,-107.76,64.4,11.41
414,Gomel,39,BY,1584926781,79,52.43,30.98,19.4,8.95
415,Chilliwack,1,CA,1584926614,75,49.17,-121.94,51.8,8.05
416,Mehamn,84,NO,1584926782,69,71.04,27.85,33.66,29.33
417,Torbay,90,CA,1584926782,79,47.67,-52.73,23.0,11.41
418,Labytnangi,0,RU,1584926783,90,66.66,66.42,0.18,6.46
419,Bandarbeyla,3,SO,1584926783,82,9.49,50.81,81.95,6.78
420,São José dos Pinhais,45,BR,1584926784,100,-25.53,-49.21,62.6,6.93
421,Kahului,40,US,1584926784,65,20.89,-156.47,78.8,20.8
422,Paducah,90,US,1584926784,75,37.08,-88.6,48.2,1.32
423,Vanavara,100,RU,1584926784,87,60.34,102.28,28.85,18.99
424,Paranaíba,25,BR,1584926785,90,-19.68,-51.19,72.72,3.38
425,Loreto,47,MX,1584926785,29,22.27,-101.97,76.73,7.4
426,Léo,66,BF,1584926785,21,11.1,-2.1,89.51,4.7
427,Olafsvik,88,IS,1584926786,89,64.89,-23.71,35.46,20.76
428,Fairview,1,US,1584926786,51,40.81,-74.0,39.2,8.05
429,Lagunas,98,PE,1584926786,79,-5.23,-75.68,77.58,2.3
430,Karligan,73,PH,1584926787,72,14.97,122.05,80.87,6.62
431,Mayor Pablo Lagerenza,32,PY,1584926787,63,-19.93,-60.77,81.54,4.38
432,Dukat,100,RU,1584926787,95,62.55,155.55,15.35,6.35
433,Dumas,1,US,1584926787,25,35.87,-101.97,68.0,10.29
434,Broome,1,US,1584926787,40,42.25,-75.83,37.0,12.75
435,Makakilo City,90,US,1584926791,61,21.35,-158.09,80.6,10.29
436,Pacifica,90,US,1584926699,93,37.61,-122.49,64.4,4.29
437,Gushi,1,CN,1584926793,49,34.64,109.58,55.49,3.51
438,Sur,96,OM,1584926793,79,22.57,59.53,75.11,19.44
439,Gigmoto,68,PH,1584926793,75,13.78,124.39,80.69,12.5
440,Sarangani,35,PH,1584926585,70,5.4,125.46,81.36,5.53
441,Soe,70,ID,1584926794,63,-9.86,124.28,80.82,1.16
442,Kiryat Gat,18,IL,1584926772,87,31.61,34.76,50.0,3.36
443,Nelson Bay,75,AU,1584926795,60,-32.72,152.15,73.4,16.11
444,Gao,33,ML,1584926795,10,16.64,1.64,82.26,10.42
445,Keuruu,39,FI,1584926795,73,62.27,24.7,28.0,6.93
446,Mossamedes,100,AO,1584926795,85,-15.2,12.15,73.26,2.37
447,Port Macquarie,75,AU,1584926683,94,-31.43,152.92,71.01,4.7
448,Ingham,90,US,1584926796,59,42.6,-84.38,36.0,10.29
449,Gimli,87,CA,1584926796,93,50.63,-96.99,28.0,4.0
450,Mongo,85,TD,1584926800,11,12.18,18.69,74.88,2.93
451,Ancud,90,CL,1584926800,82,-41.87,-73.82,55.4,9.17
452,Merrill,90,US,1584926801,83,45.18,-89.68,33.01,4.7
453,Ambilobe,17,MG,1584926801,88,-13.2,49.05,72.9,7.34
454,Linares,0,CL,1584926545,81,-35.85,-71.6,54.0,0.72
455,Upata,16,VE,1584926801,72,8.01,-62.4,75.6,7.94
456,Necochea,18,AR,1584926802,63,-38.55,-58.74,69.01,8.99
457,Aktau,34,KZ,1584926802,51,43.65,51.2,39.2,11.18
458,Bojnourd,90,IR,1584926803,93,37.47,57.33,41.0,4.7
459,Yendi,100,GH,1584926804,58,9.44,-0.01,81.9,6.35
460,Víctor Rosales,40,MX,1584926807,19,22.95,-102.7,78.8,17.22
461,Te Anau,100,NZ,1584926807,84,-45.42,167.72,46.08,12.44
462,Berea,90,US,1584926808,75,41.37,-81.85,43.0,12.75
463,Morros,76,BR,1584926810,81,-9.45,-46.3,74.75,2.71
464,Belyy Yar,0,RU,1584926811,69,53.6,91.39,32.0,8.95
465,Storforshei,100,NO,1584926811,92,66.4,14.52,35.01,3.4
466,Bilibino,100,RU,1584926812,91,68.05,166.44,7.79,3.87
467,Iranshahr,75,IR,1584926693,88,27.2,60.68,64.4,9.17
468,Philadelphia,90,US,1584926811,64,39.95,-75.16,39.99,13.87
469,Saint-Honoré,5,CA,1584926814,65,48.53,-71.08,10.0,5.82
470,Gizo Government Station,91,SB,1584926814,79,-8.1,156.84,82.8,5.73
471,Pangnirtung,100,CA,1584926814,92,66.15,-65.71,-9.72,4.5
472,Eyl,1,SO,1584926814,80,7.98,49.82,82.31,8.1
473,Zhangjiakou,0,CN,1584926814,33,40.81,114.88,38.34,4.59
474,Antalaha,27,MG,1584926815,74,-14.9,50.28,80.82,16.71
475,Alta Gracia,0,AR,1584926815,82,-31.65,-64.43,73.99,8.05
476,Ila,91,NO,1584926818,48,63.43,10.37,42.01,18.34
477,Omsukchan,99,RU,1584926821,92,62.53,155.8,16.43,8.34
478,San Andrés,20,CO,1584926821,69,12.58,-81.7,82.4,14.99
479,Nadvoitsy,19,RU,1584926821,78,63.87,34.32,20.57,10.36
480,Conde,20,BR,1584926822,88,-7.26,-34.91,78.8,3.36
481,Alekseyevsk,100,RU,1584926822,96,57.84,108.35,34.74,13.91
482,Canberra,45,AU,1584926593,51,-35.28,149.13,64.99,4.7
483,Chapais,1,CA,1584926823,66,49.78,-74.85,10.4,5.82
484,Shimoda,75,JP,1584926823,66,34.67,138.95,59.0,17.22
485,Ylivieska,100,FI,1584926824,73,64.08,24.55,30.99,5.99
486,Yerbogachën,100,RU,1584926824,79,61.28,108.01,33.89,19.3
487,Saldanha,58,ZA,1584926824,82,-33.01,17.94,59.0,8.05
488,Oodweyne,71,SO,1584926825,65,9.41,45.06,73.49,1.99
489,Iskateley,72,RU,1584926825,92,67.68,53.15,21.42,16.98
490,Abbeville,0,FR,1584926825,55,50.1,1.83,39.2,12.75
491,Ballina,90,AU,1584926826,65,-28.87,153.57,80.6,16.11
492,Utrera,24,ES,1584926826,87,37.19,-5.78,53.6,2.24
493,Milevsko,0,CZ,1584926828,81,49.45,14.36,26.01,6.26
494,Freetown,47,SL,1584926544,72,8.48,-13.23,77.27,2.42
495,Petra,0,JO,1584926828,51,30.32,35.48,47.34,4.03
496,Tacuarembó,0,UY,1584926829,49,-31.73,-55.98,66.06,6.38
497,Alta Floresta,38,BR,1584926829,93,-9.88,-56.09,73.67,1.54
498,Santa Cruz Cabrália,75,BR,1584926770,94,-16.28,-39.02,75.2,5.82
499,Okegawa,75,JP,1584926830,39,36.0,139.56,52.0,9.17
500,Jumla,12,NP,1584926834,67,29.27,82.18,29.57,5.01
501,Kupang,75,ID,1584926788,78,-10.17,123.58,82.4,3.36
502,Grodków,10,PL,1584926834,58,50.7,17.38,26.01,5.82
503,Boquira,86,BR,1584926834,77,-12.82,-42.73,74.52,2.37
504,Pacific Grove,90,US,1584926835,63,36.62,-121.92,62.6,10.29
505,Catalão,39,BR,1584926835,95,-18.17,-47.95,67.73,1.03
506,Bedford,0,GB,1584926835,85,52.13,-0.47,41.0,9.17
507,Witbank,52,ZA,1584926835,83,-25.87,29.23,57.47,4.56
508,Savelugu,100,GH,1584926836,53,9.62,-0.83,85.73,14.47
509,Santiago del Estero,0,AR,1584926836,40,-27.8,-64.26,78.3,8.23
510,Hirara,75,JP,1584926836,83,24.8,125.28,73.4,8.05
511,Neftçala,64,AZ,1584926837,81,39.37,49.25,49.68,14.18
512,Mūdbidri,0,IN,1584926837,94,13.08,74.98,75.2,4.7
513,Illapel,0,CL,1584926837,68,-31.63,-71.17,53.46,2.3
514,Talara,0,PE,1584926838,83,-4.58,-81.27,76.86,9.26
515,Cabedelo,20,BR,1584926838,88,-6.98,-34.83,78.8,3.36
516,Yārāda,75,IN,1584926838,94,17.65,83.27,75.2,2.24
517,Sørland,87,NO,1584926839,71,67.67,12.69,41.22,23.42
518,Okhotsk,91,RU,1584926839,76,59.38,143.3,13.55,12.84
519,Paka,40,MY,1584926840,94,4.64,103.44,77.0,3.65
520,Adrar,52,MR,1584926843,27,20.5,-10.07,64.13,11.68
521,San Vicente,0,AR,1584926843,69,-26.62,-54.13,69.35,2.62
522,Kirgiz-Miyaki,100,RU,1584926844,94,53.63,54.8,21.42,14.94
523,Funtua,80,NG,1584926844,38,11.52,7.31,78.66,3.24
524,Babu,76,CN,1584926844,89,24.42,111.52,70.92,2.19
525,Tura,0,IN,1584926844,62,25.52,90.22,64.98,1.92
526,Maïné Soroa,84,NE,1584926846,13,13.21,12.02,82.44,7.54
527,Arrondissement de Saint-Denis,0,FR,1584926847,48,48.92,2.33,42.01,8.05
528,Lizzano,75,IT,1584926848,71,40.39,17.45,57.2,12.75
529,Rengāli,0,IN,1584926848,88,21.63,84.05,68.0,2.01
530,Nizhniy Odes,30,RU,1584926848,96,63.64,54.86,10.98,5.35
531,Nardaran,90,AZ,1584926849,87,40.56,50.01,50.0,6.93
532,Namie,75,JP,1584926850,39,37.48,141.0,52.0,19.46
533,Vieques,40,PR,1584926850,78,18.43,-65.83,77.0,14.99
534,Mpika,99,ZM,1584926850,97,-11.83,31.45,63.59,8.23
535,Lockhart,1,US,1584926850,64,28.62,-81.44,79.0,8.05
536,Saint-Ambroise,5,CA,1584926850,65,48.55,-71.33,10.0,5.82
537,Yangi Marg`ilon,100,UZ,1584926851,71,40.43,71.72,51.8,4.7
538,Wawa,82,NG,1584926851,55,9.9,4.42,85.91,11.16
539,Honāvar,6,IN,1584926851,96,14.28,74.45,69.12,3.22
540,Shaoguan,59,CN,1584926852,88,24.8,113.58,71.46,1.03
541,‘Āhuimanu,90,US,1584926852,73,21.44,-157.84,80.6,13.87
542,Laives,20,IT,1584926854,79,46.42,11.33,30.99,4.7
543,Paamiut,100,GL,1584926855,89,61.99,-49.67,17.46,27.22
544,Westport,40,US,1584926856,59,41.14,-73.36,39.0,12.75
545,Talakan,76,RU,1584926856,87,50.32,130.37,18.36,5.84
546,St. Pete Beach,20,US,1584926857,83,27.73,-82.74,75.99,8.05
547,Orotina,32,CR,1584926858,49,9.91,-84.52,73.4,14.99
548,Copiapó,0,CL,1584926858,67,-27.37,-70.33,62.6,8.05
549,Saint George,1,US,1584926859,38,37.1,-113.58,62.01,4.7
550,Karratha,90,AU,1584926859,72,-20.74,116.85,85.19,4.9
551,Katherine,43,AU,1584926859,45,-14.47,132.27,87.8,5.82
552,Hargeisa,98,SO,1584926859,64,9.56,44.06,71.46,1.25
553,Erzin,40,TR,1584926860,81,36.96,36.2,53.01,3.36
554,Abhā,20,SA,1584926860,82,18.22,42.51,57.2,4.7
555,Uporovo,98,RU,1584926861,90,56.31,66.27,18.41,3.36
556,Svatove,100,UA,1584926865,89,49.41,38.15,27.41,16.06
557,Ciudad del Carmen,5,MX,1584926865,78,18.63,-91.83,80.6,9.17
558,Erenhot,0,CN,1584926865,33,43.65,111.98,40.01,8.5
559,Bridgetown,40,BB,1584926659,74,13.1,-59.62,78.8,17.22
560,Puerto Limón,20,CR,1584926867,74,10.0,-83.03,82.4,8.05
561,Pingliang,51,CN,1584926867,82,35.54,106.69,41.63,3.06
562,Manokwari,100,ID,1584926867,80,-0.87,134.08,77.45,5.32
563,Gijón,90,ES,1584926869,93,43.54,-5.66,54.0,3.36
564,Grajaú,100,BR,1584926869,94,-5.82,-46.14,73.13,2.35
565,Mingshui,0,CN,1584926769,45,36.72,117.5,52.38,6.08
566,Vila Velha,90,BR,1584926870,88,-20.33,-40.29,75.2,10.29
567,Nishihara,75,JP,1584926870,78,26.18,127.76,75.2,8.05
568,Vila do Maio,20,CV,1584926871,73,15.13,-23.22,69.8,18.34
